%time,field.name,field.position.x,field.position.y,field.position.z,field.velocity.x,field.velocity.y,field.velocity.z
1654324912187073171,Object 1,2.54613151948,0.63397603333,0.0,0.356106165491,0.140056094366,0.0
1654324912251764688,Object 1,2.58852779071,0.646922497451,0.0,0.698953473289,0.213438017122,0.0
1654324912319476295,Object 1,2.63019952774,0.656995782753,0.0,0.575571947619,0.139132679663,0.0
1654324912386254789,Object 1,2.65668583512,0.65885018458,0.0,0.427351089039,0.0299203897613,0.0
1654324912451546314,Object 1,2.6962660253,0.654591935376,0.0,0.651336521787,-0.0700742773667,0.0
1654324912518975940,Object 1,2.73264209628,0.651959146559,0.0,0.565555983898,-0.0409332132328,0.0
1654324912587002562,Object 1,2.76229857802,0.647838255266,0.0,0.370121758898,-0.0514299554066,0.0
1654324912653172293,Object 1,2.7907958587,0.648490727444,0.0,0.442498096504,0.0101314121905,0.0
1654324912719924263,Object 1,2.83083711068,0.667309458554,0.0,0.77455129772,0.36402639484,0.0
1654324912785870181,Object 1,2.86431626876,0.663612101972,0.0,0.427524688971,-0.0472147841548,0.0
1654324912852270860,Object 1,2.90677049081,0.656982048055,0.0,0.61677888118,-0.0963220391429,0.0
1654324912919483056,Object 1,2.92634928147,0.647950432897,0.0,0.306440827232,-0.141359886197,0.0
1654324912985500839,Object 1,2.9586344552,0.643612051209,0.0,0.484262481121,-0.0650736928812,0.0
1654324913054917088,Object 1,2.98560213765,0.638598301212,0.0,0.402248461334,-0.0747848179443,0.0
1654324913118610751,Object 1,3.00910916527,0.640933472117,0.0,0.322461873567,0.0320331263075,0.0
1654324913186227067,Object 1,3.03899747928,0.642055268288,0.0,0.498541190273,0.0187117144883,0.0
1654324913252012205,Object 1,3.06261464357,0.642467357914,0.0,0.334002861539,0.00582792720496,0.0
1654324913319556217,Object 1,3.08679565191,0.637213226358,0.0,0.468737001673,-0.101848766488,0.0
1654324913386078062,Object 1,3.10469007492,0.618586802284,0.0,0.240402589333,-0.250236656161,0.0
1654324913451979577,Object 1,3.12188892961,0.615599158208,0.0,0.245545111374,-0.0426540842932,0.0
1654324913518776096,Object 1,3.14023023725,0.620580855608,0.0,0.300372571375,0.0815844370171,0.0
1654324913585038881,Object 1,3.16185123801,0.62453004082,0.0,0.297387510289,0.0543193338121,0.0
1654324913651965932,Object 1,3.17040803909,0.627620708545,0.0,0.152540908705,0.0550969058143,0.0
1654324913721227002,Object 1,3.18550136566,0.637098757029,0.0,0.183798786985,0.115418811508,0.0
1654324913785849593,Object 1,3.19706760049,0.64465372324,0.0,0.188434622003,0.123083892344,0.0
1654324913852100286,Object 1,3.20431296315,0.648077988369,0.0,0.0973424866713,0.0460054932383,0.0
1654324913919007368,Object 1,3.21404845998,0.649451618734,0.0,0.164430296831,0.0232003001334,0.0
1654324913985281309,Object 1,3.22032396958,0.646470838728,0.0,0.0993841492194,-0.0472060922426,0.0
1654324914051896976,Object 1,3.22137159035,0.651745580378,0.0,0.0157557416139,0.0793297237212,0.0
1654324914119524280,Object 1,3.22329956815,0.653256570044,0.0,0.02997985037,0.0234957290941,0.0
1654324914186057734,Object 1,3.2180000715,0.651837152981,0.0,-0.0693397845035,-0.0185719663175,0.0
1654324914251948825,Object 1,3.21959900186,0.653794575476,0.0,0.026323350473,0.0322252423755,0.0
1654324914319831009,Object 1,3.21426395899,0.65060088907,0.0,-0.0819011689121,-0.0490280314427,0.0
1654324914385568054,Object 1,3.19912329044,0.643412227176,0.0,-0.205936267039,-0.0977768049205,0.0
1654324914452665451,Object 1,3.18800582613,0.632697913789,0.0,-0.175552955748,-0.169186905631,0.0
1654324914519103429,Object 1,3.17205361366,0.628792880575,0.0,-0.214777765345,-0.0525766760461,0.0
1654324914586123501,Object 1,3.16130932808,0.619177469611,0.0,-0.182010872638,-0.162887455539,0.0
1654324914651419254,Object 1,3.13509102225,0.610585414767,0.0,-0.372581890564,-0.122099576487,0.0
1654324914719310956,Object 1,3.11636431416,0.607361963391,0.0,-0.312941526456,-0.0538670111677,0.0
1654324914786419771,Object 1,3.09457103213,0.603470016519,0.0,-0.310670502707,-0.0554810004973,0.0
1654324914852240538,Object 1,3.08079769214,0.594736018777,0.0,-0.19895296658,-0.126160739705,0.0
1654324914918656725,Object 1,3.05533694228,0.579900811613,0.0,-0.399698046613,-0.23289193587,0.0
1654324914985360520,Object 1,3.0272066772,0.570010671268,0.0,-0.399656133315,-0.140512548932,0.0
1654324915049328036,Object 1,3.00443004966,0.562638854235,0.0,-0.380909489633,-0.123284057682,0.0
1654324915116773830,Object 1,2.9734847486,0.557006969303,0.0,-0.387606761034,-0.0705424281789,0.0
1654324915185292432,Object 1,2.94077975154,0.550722611696,0.0,-0.523737472081,-0.100637635302,0.0
1654324915186143770,Object 7,2.74751652479,-2.24162679116,0.0,1.6610826412e-09,-1.3552338329e-09,0.0
1654324915252203941,Object 1,2.90592738191,0.557041310022,0.0,-0.572903300818,0.10386677196,0.0
1654324915318932274,Object 1,2.87745008469,0.567812859764,0.0,-0.404350955055,0.152945920068,0.0
1654324915386198837,Object 1,2.84676630894,0.562753322472,0.0,-0.515144813544,-0.0849437310619,0.0
1654324915452253988,Object 1,2.81201572021,0.555793596059,0.0,-0.471217151879,-0.0943737236582,0.0
1654324915518084257,Object 1,2.77219273845,0.550882869711,0.0,-0.607102533627,-0.0748641682962,0.0
1654324915518218152,Object 7,2.74454395374,-2.29506101608,0.0,-0.00900323989159,-0.161840082706,0.0
1654324915582494899,Object 1,2.73847389221,0.554545886566,0.0,-0.526308883638,0.057175097222,0.0
1654324915652782715,Object 1,2.70657093128,0.565992798905,0.0,-0.419818082942,0.150632438259,0.0
1654324915719233951,Object 1,2.67450100183,0.564939680199,0.0,-0.558721290866,-0.0183474006015,0.0
1654324915719747806,Object 7,2.75304253896,-2.30941544771,0.0,0.0430400097561,-0.0726962030819,0.0
1654324915786190165,Object 1,2.64007978042,0.56411550194,0.0,-0.563301573429,-0.0134876361371,0.0
1654324915853218507,Object 1,2.60940156182,0.570811948925,0.0,-0.407301182585,0.0889057742041,0.0
1654324915853934072,Object 7,2.75056980451,-2.28043186665,0.0,-0.0181249737861,0.212447659625,0.0
1654324915919245021,Object 1,2.5766041557,0.57129271999,0.0,-0.513315117344,0.00752459065331,0.0
1654324915919525112,Object 7,2.75052243869,-2.24293176333,0.0,-0.00074132672607,0.58691744904,0.0
1654324915985453793,Object 1,2.53711394866,0.582670953621,0.0,-0.647412184699,0.186537565796,0.0
1654324916053611721,Object 1,2.49714775284,0.588886630287,0.0,-0.533253513555,0.0829333728853,0.0
1654324916053890212,Object 7,2.74971187512,-2.19657175938,0.0,-0.00596244436104,0.341020687696,0.0
1654324916119655981,Object 1,2.46169327895,0.601798751205,0.0,-0.50786641599,0.184959240785,0.0
1654324916119980544,Object 7,2.74954131047,-2.14258810679,0.0,-0.00244324759996,0.773287011581,0.0
1654324916185499297,Object 1,2.42385306557,0.617183406899,0.0,-0.662296344671,0.269269127222,0.0
1654324916252714643,Object 1,2.37905373772,0.630461831639,0.0,-0.591886298561,0.175433830084,0.0
1654324916319641790,Object 1,2.34145488143,0.633666976045,0.0,-0.578936091063,0.049351867488,0.0
1654324916319950024,Object 7,2.74307401578,-2.06346701781,0.0,-0.0327013075315,0.400068836483,0.0
1654324916385797631,Object 1,2.30523180366,0.640535123895,0.0,-0.611270212312,0.115901089926,0.0
1654324916453502919,Object 1,2.26805292964,0.649326356997,0.0,-0.576151734483,0.136235545974,0.0
1654324916519610358,Object 1,2.23308350643,0.656927108765,0.0,-0.436165398367,0.0948023907126,0.0
1654324916520528727,Object 7,2.74669286013,-1.98581113418,0.0,0.0177426475258,0.380735074026,0.0
1654324916586076041,Object 1,2.1921261847,0.662536096573,0.0,-0.736488683198,0.100860014062,0.0
1654324916653648502,Object 1,2.16262294054,0.652165190876,0.0,-0.420595737811,-0.147846748976,0.0
1654324916718599002,Object 1,2.12524856528,0.669278328121,0.0,-0.488310816844,0.22358982506,0.0
1654324916785748359,Object 1,2.08864895105,0.682373599211,0.0,-0.718343043207,0.257021749727,0.0
1654324916852036710,Object 1,2.05970763564,0.680587881307,0.0,-0.37236589436,-0.0229754741666,0.0
1654324916919216657,Object 1,2.03322333694,0.678893736502,0.0,-0.476860401722,-0.0305037555038,0.0
1654324916985938356,Object 1,1.99950816631,0.676260943711,0.0,-0.443121760684,-0.0346030512504,0.0
1654324917052041096,Object 1,1.9710766832,0.674566803873,0.0,-0.44860447036,-0.0267308849807,0.0
1654324917120353311,Object 1,1.93739253481,0.677451424301,0.0,-0.534161934324,0.0457442002027,0.0
1654324917185645990,Object 1,1.90550531447,0.673628154894,0.0,-0.466264457677,-0.0559049869325,0.0
1654324917253001288,Object 1,1.88165180882,0.673170279463,0.0,-0.349237477805,-0.00670372157722,0.0
1654324917319476058,Object 1,1.85056340297,0.68841757228,0.0,-0.43550827135,0.213594809908,0.0
1654324917387018327,Object 1,1.81938548485,0.67839007626,0.0,-0.512562925683,-0.16485137584,0.0
1654324917453621688,Object 1,1.78939281702,0.667904703319,0.0,-0.438795795691,-0.153402077738,0.0
1654324917519489444,Object 1,1.7517513752,0.668454155326,0.0,-0.566071659065,0.00826294621088,0.0
1654324917586600950,Object 1,1.71880767743,0.666851587097,0.0,-0.513447398996,-0.0249769924022,0.0
1654324917653261318,Object 1,1.68752366106,0.674372210602,0.0,-0.462570770348,0.111201214289,0.0
1654324917721235741,Object 1,1.64576224188,0.680759590367,0.0,-0.61172491077,0.0935628959481,0.0
1654324917784864677,Object 1,1.61657243947,0.688204665879,0.0,-0.39998858164,0.102020053188,0.0
1654324917852929163,Object 1,1.57955588778,0.687929940124,0.0,-0.628074138275,-0.00466137805861,0.0
1654324917920296255,Object 1,1.54256366471,0.697957438628,0.0,-0.529143888135,0.143435271171,0.0
1654324917988209039,Object 1,1.51677831391,0.687346148888,0.0,-0.381184597762,-0.156866596176,0.0
1654324917988542148,Object 14,2.98599619525,-0.90719432249,0.0,1.80526173127e-09,-5.48467943736e-10,0.0
1654324918054223001,Object 1,1.49016760647,0.683756396373,0.0,-0.434604528794,-0.0586276296389,0.0
1654324918055642243,Object 13,1.51235849261,1.51010018587,0.0,9.14335696379e-10,9.1297037825e-10,0.0
1654324918056052327,Object 14,2.96940238135,-0.87933023765,0.0,-0.271009205034,0.455074615678,0.0
1654324918120456889,Object 1,1.45434127311,0.689067764282,0.0,-0.515347373932,0.0764018878558,0.0
1654324918121213247,Object 13,1.46402634382,1.53757278323,0.0,-0.69523849127,0.395182246564,0.0
1654324918121441245,Object 14,2.98836323874,-0.83132186874,0.0,0.272744295792,0.690581048106,0.0
1654324918187647038,Object 1,1.43610391835,0.69590844065,0.0,-0.287832815939,0.10796363662,0.0
1654324918188451914,Object 14,3.00308880465,-0.821363051676,0.0,0.232407668717,0.157175993867,0.0
1654324918253826914,Object 1,1.40686238627,0.695450563232,0.0,-0.407700995253,-0.00638397051914,0.0
1654324918255106793,Object 14,3.01013640302,-0.810360273861,0.0,0.0982613652984,0.153406581169,0.0
1654324918320741583,Object 1,1.38011526287,0.693218415479,0.0,-0.427611420701,-0.0356857766605,0.0
1654324918321020410,Object 13,1.39308114946,1.56751791239,0.0,-0.358972651118,0.151518118989,0.0
1654324918322044186,Object 14,3.01052364645,-0.765122058136,0.0,0.00619093540281,0.723232080192,0.0
1654324918388993152,Object 1,1.34349142432,0.70894647787,0.0,-0.517118199446,0.222075774357,0.0
1654324918389287956,Object 13,1.3651186496,1.57404266,0.0,-0.394822556917,0.0921275832932,0.0
1654324918390088472,Object 14,3.00651449797,-0.752072570367,0.0,-0.0566080379596,0.184255061386,0.0
1654324918455716974,Object 1,1.30707725426,0.71658843865,0.0,-0.546013896535,0.114587721619,0.0
1654324918456488422,Object 13,1.32975016534,1.5621607542,0.0,-0.530334314069,-0.178163766168,0.0
1654324918457360625,Object 14,3.01471171359,-0.732704386754,0.0,0.122913515153,0.290417092685,0.0
1654324918521298529,Object 1,1.27948979874,0.726501467923,0.0,-0.418300104837,0.150308214639,0.0
1654324918522816891,Object 13,1.29618782103,1.55999728441,0.0,-0.508895506471,-0.0328040271853,0.0
1654324918523651162,Object 14,3.02878874123,-0.722871484998,0.0,0.213445641433,0.149093265732,0.0
1654324918587801855,Object 1,1.24916940272,0.729111368557,0.0,-0.474894538796,0.0408776836749,0.0
1654324918588193685,Object 13,1.26015342375,1.56084435582,0.0,-0.564390335285,0.0132672932724,0.0
1654324918589089167,Object 14,3.03256291529,-0.69954266612,0.0,0.0591131674334,0.365388653632,0.0
1654324918654353031,Object 1,1.21547748983,0.744118277331,0.0,-0.478868603863,0.213295620129,0.0
1654324918654986998,Object 14,3.01923799177,-0.667344781402,0.0,-0.189389291766,0.457633739975,0.0
1654324918721998167,Object 1,1.18524053242,0.748721899461,0.0,-0.469679991958,0.0715094834245,0.0
1654324918722837950,Object 14,3.00701825758,-0.658938167932,0.0,-0.189812902748,0.130582521665,0.0
1654324918787619602,Object 1,1.16834167764,0.764619378121,0.0,-0.253181548927,0.238178759768,0.0
1654324918787678711,Object 14,2.98810016294,-0.677234923187,0.0,-0.283434147875,-0.274125134398,0.0
1654324918854328649,Object 1,1.12856545216,0.772201816312,0.0,-0.587649107667,0.112022017729,0.0
1654324918855307346,Object 13,1.25654886862,1.56743777394,0.0,-0.0133914628605,0.0244955370943,0.0
1654324918856036202,Object 14,2.97511102339,-0.671946450415,0.0,-0.191899964776,0.0781312522015,0.0
1654324918921785234,Object 1,1.10236943131,0.783960088662,0.0,-0.416601545467,0.186994599775,0.0
1654324918922739686,Object 14,2.96344158789,-0.673897006455,0.0,-0.185581806255,-0.0310201562909,0.0
1654324918988232951,Object 1,1.08119521306,0.791583734325,0.0,-0.279829313916,0.100750805039,0.0
1654324918988472867,Object 14,2.95402094742,-0.710298202577,0.0,-0.124499111464,-0.481062470067,0.0
1654324919053257347,Object 1,1.07626149074,0.778019140235,0.0,-0.0836660046091,-0.230028225888,0.0
1654324919054231961,Object 14,2.93954143842,-0.729597703758,0.0,-0.245543342026,-0.327280712394,0.0
1654324919120521313,Object 1,1.06355124032,0.779736181171,0.0,-0.185711936371,0.0250880184583,0.0
1654324919121221640,Object 14,2.92188763936,-0.756723629435,0.0,-0.257943085268,-0.3963421662,0.0
1654324919186516729,Object 1,1.04956362362,0.780846532257,0.0,-0.226460014848,0.0179766238077,0.0
1654324919186901978,Object 14,2.90021214803,-0.776023131609,0.0,-0.350926980279,-0.312459630778,0.0
1654324919252850176,Object 1,1.04387044127,0.775214647324,0.0,-0.0742418860392,-0.0734425377055,0.0
1654324919254234602,Object 14,2.88995943387,-0.814576348662,0.0,-0.133700413821,-0.502752831608,0.0
1654324919318784767,Object 1,1.04041271523,0.761386769088,0.0,-0.0526438689404,-0.210529406,0.0
1654324919320226339,Object 14,2.8956634148,-0.856870415807,0.0,0.0868430929841,-0.643927049454,0.0
1654324919386956793,Object 1,1.03934201231,0.758266664545,0.0,-0.0185554059574,-0.0540717737261,0.0
1654324919387795794,Object 14,2.89810142477,-0.890805942714,0.0,0.042250995769,-0.588106618558,0.0
1654324919453243282,Object 1,1.03445801288,0.736920452118,0.0,-0.0685827390717,-0.299750591472,0.0
1654324919519557721,Object 1,1.04568714847,0.72272627453,0.0,0.168850837411,-0.213435731742,0.0
1654324919586165185,Object 1,1.05005612125,0.718522966901,0.0,0.0660338875556,-0.0635299777302,0.0
1654324919652074290,Object 1,1.05218171626,0.708518364032,0.0,0.0303210580672,-0.142713048649,0.0
1654324919719098435,Object 1,1.06067455709,0.703332907458,0.0,0.134811156252,-0.0823113738632,0.0
1654324919784486104,Object 1,1.08241068621,0.683300800622,0.0,0.354982140818,-0.327153014646,0.0
1654324919851967470,Object 1,1.10666178962,0.66740103215,0.0,0.363165561637,-0.238102499973,0.0
1654324919920290344,Object 1,1.12850005229,0.658472438157,0.0,0.287179888133,-0.117413764183,0.0
1654324919920552186,Object 14,2.88519404848,-0.959459964931,0.0,-0.0238569310192,-0.126894438924,0.0
1654324919987126889,Object 1,1.15803389549,0.654511806369,0.0,0.452575241102,-0.0606925375125,0.0
1654324919987896189,Object 13,1.25020479858,1.58863746126,0.0,-0.00559400607131,0.0186932330339,0.0
1654324919988730900,Object 14,2.87650466879,-1.01196696162,0.0,-0.133155650709,-0.804614777921,0.0
1654324920053098178,Object 1,1.19055249095,0.646579094231,0.0,0.534614050423,-0.130415822306,0.0
1654324920053991381,Object 14,2.86666460315,-1.07044696291,0.0,-0.161773203096,-0.961426221498,0.0
1654324920120137804,Object 1,1.22375827809,0.647513164381,0.0,0.468654341406,0.0131831246502,0.0
1654324920121361190,Object 14,2.84999767939,-1.13706801136,0.0,-0.235230869403,-0.940265124621,0.0
1654324920186583317,Object 1,1.25161500553,0.643953172664,0.0,0.430741831704,-0.0550472899739,0.0
1654324920187626405,Object 14,2.84038394491,-1.19702695956,0.0,-0.148654848628,-0.927130698575,0.0
1654324920252140029,Object 1,1.28994057159,0.633101495902,0.0,0.542329161114,-0.153557569036,0.0
1654324920253672738,Object 13,1.24465992749,1.5951850911,0.0,-0.0207657715172,0.0245211444674,0.0
1654324920318990202,Object 1,1.33092034042,0.624218689203,0.0,0.737613328813,-0.15988564125,0.0
1654324920320045785,Object 13,1.25295695364,1.59784076611,0.0,0.149341913279,0.0478006914881,0.0
1654324920386948572,Object 1,1.36982178569,0.613401355147,0.0,0.514122500906,-0.142962165015,0.0
1654324920387714065,Object 13,1.28709749877,1.60573913852,0.0,0.451202322247,0.104385092874,0.0
1654324920388506785,Object 14,2.8374843816,-1.2567340826,0.0,-0.0143619935899,-0.295738780624,0.0
1654324920453044353,Object 1,1.40870127559,0.611409591436,0.0,0.604670582303,-0.0309767675981,0.0
1654324920454067455,Object 13,1.33961873651,1.62428313891,0.0,0.816832923601,0.288404285693,0.0
1654324920520331500,Object 1,1.44280081272,0.606361501962,0.0,0.514477891927,-0.0761632165519,0.0
1654324920520687095,Object 14,2.82661361893,-1.33370314588,0.0,-0.0832507738619,-0.589446598964,0.0
1654324920585088147,Object 1,1.47895961285,0.596059275717,0.0,0.483055274205,-0.137630250635,0.0
1654324920652900960,Object 1,1.50829582194,0.582391656985,0.0,0.532786795037,-0.248223168692,0.0
1654324920653670400,Object 13,1.3757801652,1.62545072834,0.0,0.184312697927,0.00595113536661,0.0
1654324920719363123,Object 1,1.54080444853,0.57734356751,0.0,0.449204426779,-0.0697545352492,0.0
1654324920719891486,Object 13,1.42856283784,1.64083539049,0.0,0.729351335413,0.212585367943,0.0
1654324920785460865,Object 1,1.57420494358,0.555118233462,0.0,0.500333325,-0.332931451051,0.0
1654324920853013473,Object 1,1.60602130691,0.540225795408,0.0,0.50242841814,-0.235174083696,0.0
1654324920919131045,Object 1,1.64193026225,0.521498640378,0.0,0.541475644699,-0.282389121275,0.0
1654324920919834680,Object 13,1.50034481883,1.6640153865,0.0,0.365491499293,0.118025323063,0.0
1654324920985277806,Object 1,1.67382445733,0.519026102622,0.0,0.456013873975,-0.0353516217552,0.0
1654324921052263784,Object 1,1.70856906871,0.503195016583,0.0,0.520942377262,-0.237362954079,0.0
1654324921119998911,Object 1,1.74580989579,0.490832347174,0.0,0.555438663243,-0.184386467971,0.0
1654324921186072241,Object 1,1.78443110685,0.489653315892,0.0,0.649635056987,-0.0198321086688,0.0
1654324921186363778,Object 14,2.7979993244,-1.43363471677,0.0,-0.0432358167941,-0.150995268692,0.0
1654324921252409298,Object 1,1.82366128266,0.48818810905,0.0,0.508306174167,-0.0189847144091,0.0
1654324921252624807,Object 14,2.76507044037,-1.54002235581,0.0,-0.426660210251,-1.37846677108,0.0
1654324921320231249,Object 1,1.86639133592,0.489630420258,0.0,0.78368992804,0.0264526879793,0.0
1654324921386459231,Object 1,1.90910161336,0.49052327623,0.0,0.609541185057,0.0127424245389,0.0
1654324921452964841,Object 1,1.94651634296,0.496484829088,0.0,0.503108990183,0.0801639052572,0.0
1654324921519842998,Object 1,1.99706179698,0.505642361542,0.0,0.743038493756,0.134619408452,0.0
1654324921586286509,Object 1,2.04732827743,0.528009635558,0.0,0.79057791677,0.351786573053,0.0
1654324921587339695,Object 14,2.74448180993,-1.65812019606,0.0,-0.0622825734961,-0.357257246288,0.0
1654324921653606718,Object 1,2.09771327774,0.526315491746,0.0,0.81097990043,-0.0272683650183,0.0
1654324921654522923,Object 14,2.74270693858,-1.73930174609,0.0,-0.0285677281205,-1.30667073442,0.0
1654324921719543664,Object 1,2.14276384513,0.539616809636,0.0,0.654784598218,0.193327156472,0.0
1654324921719799719,Object 14,2.73776726325,-1.82910282513,0.0,-0.0717953960295,-1.30520805539,0.0
1654324921785558276,Object 14,2.72846999168,-1.91518365443,0.0,-0.147945350133,-1.36978449382,0.0
1654324921852103949,Object 1,2.23446288506,0.570821103305,0.0,0.670008119018,0.223153827443,0.0
1654324921920369228,Object 1,2.27968741258,0.57633851553,0.0,0.74393439644,0.0907603231938,0.0
1654324921921361079,Object 14,2.73960562348,-1.9982195884,0.0,0.0835232922031,-0.622814645923,0.0
1654324921986435037,Object 1,2.31560741266,0.587327553431,0.0,0.508778198028,0.155650971312,0.0
1654324922052949970,Object 1,2.35552633603,0.598316596548,0.0,0.508974039397,0.140112437682,0.0
1654324922120383748,Object 1,2.40659579833,0.60643475155,0.0,0.897153788805,0.142614258909,0.0
1654324922187189479,Object 1,2.46077553829,0.610796026389,0.0,0.808835222723,0.0651083358545,0.0
1654324922252271783,Object 1,2.49769035578,0.600196184466,0.0,0.540188142969,-0.155111397344,0.0
1654324922318960898,Object 1,2.53741687536,0.604637589802,0.0,0.652382835441,0.0729360798977,0.0
1654324922319858168,Object 14,2.7270179987,-2.09595336318,0.0,-0.0312991936932,-0.24301553301,0.0
1654324922387104350,Object 1,2.57669556538,0.604591801514,0.0,0.589972127224,-0.000687747318662,0.0
1654324922387356439,Object 14,2.71772089005,-2.18352226019,0.0,-0.13964404018,-1.31529866246,0.0
1654324922453099424,Object 1,2.61502743165,0.600150397172,0.0,0.541603363303,-0.0627540415899,0.0
1654324922453384347,Object 14,2.71152534485,-2.24581638575,0.0,-0.0875388662999,-0.880173891953,0.0
1654324922520009747,Object 1,2.65184400717,0.590219052782,0.0,0.573638008277,-0.154739992348,0.0
1654324922520955490,Object 14,2.72131584883,-2.27308294773,0.0,0.152545561937,-0.42483952094,0.0
1654324922586154602,Object 1,2.68645985365,0.595873830865,0.0,0.487005146576,0.0795562238017,0.0
1654324922587766911,Object 14,2.73781474829,-2.28681926727,0.0,0.232120539233,-0.193254217162,0.0
1654324922653003501,Object 1,2.7331142807,0.592439757685,0.0,0.751507755764,-0.0553159215898,0.0
1654324922653336920,Object 14,2.74263339043,-2.288192904,0.0,0.0776185063002,-0.0221264886496,0.0
1654324922720911745,Object 1,2.76482767105,0.586773534516,0.0,0.457877144972,-0.0818087898659,0.0
1654324922721247934,Object 14,2.74299684763,-2.28681926727,0.0,0.00524758610007,0.0198325330029,0.0
1654324922787581157,Object 1,2.79524014533,0.590825742135,0.0,0.445154990403,0.0593131761473,0.0
1654324922788263638,Object 14,2.75055437485,-2.26891628504,0.0,0.110621415692,0.2620504275,0.0
1654324922849852123,Object 1,2.80725293458,0.599788676749,0.0,0.173211992244,0.129236243846,0.0
1654324922850004402,Object 14,2.76944077015,-2.25037227074,0.0,0.272322279824,0.267385500032,0.0
1654324922919913932,Object 1,2.83114464184,0.610365626266,0.0,0.399584833634,0.176897722998,0.0
1654324922919951273,Object 14,2.76471334696,-2.22853155533,0.0,-0.0790653672697,0.365282335725,0.0
1654324922983968850,Object 1,2.84901504219,0.620942576279,0.0,0.249773871133,0.147833607421,0.0
1654324922984075674,Object 14,2.77604262829,-2.19110013644,0.0,0.158348912149,0.523177445208,0.0
1654324923053402308,Object 1,2.87257180313,0.645118464579,0.0,0.34780787134,0.356949084227,0.0
1654324923054013956,Object 14,2.78946757714,-2.14551852544,0.0,0.198214979272,0.672997579295,0.0
1654324923119250316,Object 1,2.88780871729,0.650063532144,0.0,0.254013410495,0.0824388366442,0.0
1654324923120167266,Object 14,2.80535485744,-2.09512919585,0.0,0.264855613939,0.840036593347,0.0
1654324923185964622,Object 1,2.89857602934,0.656684429199,0.0,0.148910343281,0.0915660332565,0.0
1654324923252436212,Object 14,2.81335124175,-2.05039464633,0.0,0.0576231505582,0.322363906571,0.0
1654324923319521843,Object 1,2.90392095466,0.685347510626,0.0,0.00083629822504,0.241629042357,0.0
1654324923319843811,Object 14,2.81144415538,-2.00222600698,0.0,-0.0317978175747,0.803140135027,0.0
1654324923384686086,Object 1,2.90631401757,0.692936813086,0.0,0.0300998105748,0.0954578191614,0.0
1654324923452941876,Object 1,2.9021760416,0.698797635734,0.0,-0.0789681194567,0.111846503271,0.0
1654324923453280961,Object 14,2.80565662781,-1.95902533531,0.0,-0.0438765366047,0.327513922303,0.0
1654324923519848804,Object 1,2.89216267824,0.712843002975,0.0,-0.144335201713,0.202453545396,0.0
1654324923520169464,Object 14,2.81039595048,-1.89767901182,0.0,0.0683138190204,0.88426172663,0.0
1654324923586204200,Object 1,2.87459259391,0.722962081035,0.0,-0.250880106079,0.144488514053,0.0
1654324923588244363,Object 14,2.81464963992,-1.84465688944,0.0,0.0607376743162,0.757093445631,0.0
1654324923654069160,Object 1,2.87190270185,0.727495061954,0.0,-0.0416418144573,0.0701743960729,0.0
1654324923654888236,Object 14,2.8039868319,-1.78136688848,0.0,-0.165069327822,0.979782989155,0.0
1654324923719607561,Object 1,2.86999672413,0.727220336199,0.0,-0.0248945114831,-0.00358827040353,0.0
1654324923719907048,Object 14,2.79877950072,-1.71835848471,0.0,-0.0680144180615,0.822970494356,0.0
1654324923787696364,Object 1,2.87279629946,0.72749506553,0.0,0.0533497046797,0.00523533999697,0.0
1654324923788073305,Object 14,2.79593964934,-1.64720445355,0.0,-0.0541172194457,1.35593656293,0.0
1654324923852113293,Object 1,2.87304043055,0.727955230673,0.0,0.0034280778579,0.00646161842396,0.0
1654324923852557025,Object 14,2.7921985201,-1.59253397266,0.0,-0.0525327699996,0.767680455399,0.0
1654324923919918620,Object 1,2.87403526783,0.721934150259,0.0,0.0133889407635,-0.0810342457915,0.0
1654324923920115406,Object 14,2.7866476508,-1.53397154291,0.0,-0.0747059458985,0.788157938364,0.0
1654324923988117571,Object 1,2.86103227019,0.724509705702,0.0,-0.216814188316,0.0429452483651,0.0
1654324923988953662,Object 14,2.78682396928,-1.47465362628,0.0,0.00293996435363,0.989077004115,0.0
1654324924052909130,Object 1,2.86300478856,0.723994595408,0.0,0.0299502659562,-0.00782131643474,0.0
1654324924053362103,Object 14,2.78687538664,-1.41795933723,0.0,0.000780709248621,0.86083306786,0.0
1654324924119206313,Object 1,2.87067697128,0.71270793438,0.0,0.119878058624,-0.176354378155,0.0
1654324924119996081,Object 14,2.80044959346,-1.35539049387,0.0,0.212097342001,0.977639838322,0.0
1654324924186545142,Object 1,2.89744200389,0.688635068734,0.0,0.391564236002,-0.352178657217,0.0
1654324924187452043,Object 14,2.7952146105,-1.30849476457,0.0,-0.0765861987178,0.686070167912,0.0
1654324924254013118,Object 14,2.7828595372,-1.26609537899,0.0,-0.177992564886,0.610824007955,0.0
1654324924319335034,Object 1,2.9002292184,0.676272393366,0.0,0.0213921892984,-0.0948849433924,0.0
1654324924320181541,Object 14,2.78543010871,-1.22828620871,0.0,0.0422251050886,0.621066633378,0.0
1654324924386809464,Object 14,2.77903594414,-1.18889049788,0.0,-0.0887816432125,0.547001239742,0.0
1654324924453506894,Object 14,2.77500326077,-1.14905522664,0.0,-0.0604552830418,0.597183655489,0.0
1654324924519628793,Object 14,2.7566735371,-1.1095404764,0.0,-0.273665968979,0.589962107729,0.0
1654324924588522069,Object 1,2.89128372153,0.656034243703,0.0,-0.0326492277017,-0.0738650927596,0.0
1654324924589393505,Object 14,2.74101241668,-1.07494789859,0.0,-0.229355796089,0.506605403282,0.0
1654324924654222011,Object 1,2.88405730605,0.636391336322,0.0,-0.10330145541,-0.28079494293,0.0
1654324924655147284,Object 14,2.72575124343,-1.03607416799,0.0,-0.218158146763,0.555699151531,0.0
1654324924720742339,Object 1,2.87911019524,0.63281989495,0.0,-0.0756586473366,-0.0546198444994,0.0
1654324924721728340,Object 14,2.71239282688,-0.99993395855,0.0,-0.204296965587,0.552710352447,0.0
1654324924786678921,Object 1,2.88189445933,0.624200368921,0.0,0.0428357371324,-0.132610894492,0.0
1654324924786924483,Object 14,2.69246223291,-0.96202176859,0.0,-0.306631000939,0.583276784142,0.0
1654324924852780171,Object 1,2.89456259211,0.605141254018,0.0,0.207353813493,-0.311962325072,0.0
1654324924853011610,Object 14,2.68059402068,-0.913615048428,0.0,-0.194260599107,0.792328135244,0.0
1654324924921478924,Object 1,2.91691312194,0.584021697193,0.0,0.330510182616,-0.312307074418,0.0
1654324924922417406,Object 14,2.66424820503,-0.862653381725,0.0,-0.241715008973,0.753599574456,0.0
1654324924988090541,Object 1,2.93248167038,0.559811469913,0.0,0.22704955511,-0.353078602933,0.0
1654324924989093513,Object 14,2.64119629145,-0.808303424815,0.0,-0.33618591627,0.792632247215,0.0
1654324925055251756,Object 1,2.94629468918,0.543739999086,0.0,0.200321560085,-0.233074475304,0.0
1654324925055507832,Object 14,2.63679339767,-0.749855469267,0.0,-0.0638524108362,0.84763409142,0.0
1654324925122687175,Object 14,2.6214604187,-0.708097116748,0.0,-0.236038959847,0.642836471409,0.0
1654324925186871970,Object 1,2.97473409573,0.496212403725,0.0,0.395915985811,-0.499867217114,0.0
1654324925187053036,Object 14,2.61011754155,-0.658303024719,0.0,-0.152313655747,0.66864165869,0.0
1654324925253675645,Object 14,2.60441433867,-0.607501609474,0.0,-0.110882792848,0.987691112893,0.0
1654324925318824850,Object 14,2.59599737128,-0.554630589336,0.0,-0.117860023503,0.740335489724,0.0
1654324925319797218,Object 24,2.08466965556,2.56715422869,0.0,1.26034130279e-09,1.55203991021e-09,0.0
1654324925387433433,Object 14,2.58446767529,-0.508613987118,0.0,-0.182927387446,0.730088358955,0.0
1654324925451618022,Object 14,2.57832642277,-0.452203580091,0.0,-0.0759524322029,0.697660225317,0.0
1654324925519635751,Object 14,2.57103048205,-0.403357296536,0.0,-0.132612491586,0.887839912376,0.0
1654324925585419611,Object 14,2.56214495222,-0.359126408647,0.0,-0.114277081896,0.568854856267,0.0
1654324925653283320,Object 14,2.55108306925,-0.316690397412,0.0,-0.195097429083,0.748440090435,0.0
1654324925720308858,Object 14,2.5364864401,-0.277301557139,0.0,-0.203295013814,0.54858931806,0.0
1654324925787184598,Object 14,2.52555700461,-0.221600862555,0.0,-0.165281698774,0.842340432928,0.0
1654324925853463142,Object 14,2.50974574606,-0.178022452034,0.0,-0.236323943411,0.651347379241,0.0
1654324925854098692,Object 22,2.57993519704,2.91726960341,0.0,1.5597669768e-09,1.76371127269e-09,0.0
1654324925919729912,Object 14,2.48786362131,-0.138713739278,0.0,-0.340854857978,0.61230643101,0.0
1654324925920655476,Object 22,2.53773830334,2.80094602505,0.0,-0.657295229607,-1.81195643697,0.0
1654324925985950362,Object 14,2.45643090208,-0.102848259571,0.0,-0.418747236692,0.477800549485,0.0
1654324926052710938,Object 14,2.42807569702,-0.0720560532932,0.0,-0.484181010618,0.5257941716,0.0
1654324926054022759,Object 22,2.49024984042,2.69332212607,0.0,-0.355380911089,-0.805405711614,0.0
1654324926120354511,Object 14,2.39489042163,-0.0389973568047,0.0,-0.549448863449,0.547353095497,0.0
1654324926121468733,Object 22,2.43811101913,2.60834022363,0.0,-0.863262870489,-1.40704602125,0.0
1654324926185823087,Object 14,2.35642387271,-0.00465660513689,0.0,-0.480551617323,0.429009209756,0.0
1654324926186600217,Object 22,2.37820664048,2.5261971434,0.0,-0.748368305832,-1.02619005778,0.0
1654324926252984232,Object 14,2.31552581986,0.0305083232994,0.0,-0.732561791003,0.629870645661,0.0
1654324926320430259,Object 14,2.27724348903,0.0584937455133,0.0,-0.562501474265,0.411203835074,0.0
1654324926386845919,Object 14,2.23483007352,0.082932913055,0.0,-0.627275689736,0.36144449796,0.0
1654324926453179039,Object 14,2.19886528949,0.101511258011,0.0,-0.51101397565,0.263974723443,0.0
1654324926520357136,Object 14,2.16537386576,0.134478378979,0.0,-0.500430033309,0.492595883022,0.0
1654324926586769247,Object 14,2.12837830583,0.165179010046,0.0,-0.560158494939,0.46484549293,0.0
1654324926653503259,Object 14,2.09602461616,0.195577441615,0.0,-0.498657678415,0.468521873955,0.0
1654324926654437214,Object 22,2.30080332359,2.42587637107,0.0,-0.168366064102,-0.218215630316,0.0
1654324926720056835,Object 14,2.06181711713,0.243150828741,0.0,-0.500916984373,0.696640160587,0.0
1654324926721218945,Object 22,2.21229629119,2.34524429242,0.0,-1.29605136369,-1.18073459997,0.0
1654324926786690733,Object 14,2.0168448325,0.268242469393,0.0,-0.666716504077,0.371984902976,0.0
1654324926854389798,Object 14,1.9730098482,0.290060291402,0.0,-0.702200855517,0.349503793015,0.0
1654324926920570482,Object 14,1.93416665753,0.306955940984,0.0,-0.566678782609,0.246488663043,0.0
1654324926987803285,Object 14,1.8894163541,0.322816789063,0.0,-0.656618530037,0.232725276774,0.0
1654324927052182470,Object 14,1.84678674658,0.337903825417,0.0,-0.635883484005,0.22504540385,0.0
1654324927053481625,Object 28,3.02967164516,-0.530015137792,0.0,1.83166685143e-09,-3.20434447145e-10,0.0
1654324927120561943,Object 14,1.79461639146,0.362434568542,0.0,-0.805972571112,0.378972043825,0.0
1654324927121385621,Object 28,3.031111902,-0.584548246861,0.0,0.0222503278133,-0.842474428721,0.0
1654324927188617722,Object 14,1.7468233339,0.368272497045,0.0,-0.742810710911,0.0907344297149,0.0
1654324927189734943,Object 28,3.02072126269,-0.642103344202,0.0,-0.161493709818,-0.894534582106,0.0
1654324927255032547,Object 14,1.70086911837,0.380703847396,0.0,-0.650483105645,0.175966084735,0.0
1654324927256706230,Object 28,3.01654731631,-0.7067326352,0.0,-0.0590823186371,-0.914829280454,0.0
1654324927319436035,Object 14,1.66068253676,0.365896117079,0.0,-0.598409988959,-0.22049881777,0.0
1654324927319803350,Object 28,3.00736936927,-0.775002045929,0.0,-0.136666891515,-1.01658552886,0.0
1654324927389638261,Object 14,1.62000141899,0.341857590663,0.0,-0.653287803664,-0.386028629133,0.0
1654324927391111729,Object 28,2.99591678023,-0.84912312001,0.0,-0.183914237035,-1.1902916228,0.0
1654324927453570737,Object 14,1.57975429495,0.338863077747,0.0,-0.603198335334,-0.0448798578555,0.0
1654324927454486654,Object 28,2.98368963838,-0.912138397694,0.0,-0.18325263707,-0.944432962845,0.0
1654324927520858836,Object 14,1.54291168968,0.33039694005,0.0,-0.558677527193,-0.128379652811,0.0
1654324927521656627,Object 28,2.9768121326,-0.967220960259,0.0,-0.104289799637,-0.835266388405,0.0
1654324927588609913,Object 14,1.50569283883,0.338673060251,0.0,-0.518706035786,0.115341376825,0.0
1654324927589360967,Object 28,2.97212006688,-1.02466616571,0.0,-0.065391669851,-0.800593626954,0.0
1654324927653432137,Object 14,1.4686425374,0.349826936585,0.0,-0.585651291144,0.176308473182,0.0
1654324927653918016,Object 28,2.96657428384,-1.08730370045,0.0,-0.0876617699155,-0.990106737995,0.0
1654324927716718955,Object 14,1.4248698618,0.34488186753,0.0,-0.671592427712,-0.0758708689073,0.0
1654324927717076939,Object 28,2.95740224163,-1.1454540356,0.0,-0.140724184938,-0.892185004182,0.0
1654324927787572062,Object 14,1.38437979877,0.333297588589,0.0,-0.549355092623,-0.15717146762,0.0
1654324927787839479,Object 28,2.94931669275,-1.20390199562,0.0,-0.10970191499,-0.793001593129,0.0
1654324927853840930,Object 14,1.34572542369,0.35232236358,0.0,-0.600494831309,0.295549443662,0.0
1654324927854867902,Object 28,2.94934257309,-1.2577826335,0.0,0.000402050438714,-0.837034475223,0.0
1654324927918652270,Object 14,1.29790763676,0.364781189288,0.0,-0.736589731348,0.191916934462,0.0
1654324927918812713,Object 28,2.93732051293,-1.32155341049,0.0,-0.185188956424,-0.982331105276,0.0
1654324927986956464,Object 14,1.2539200145,0.391979063327,0.0,-0.61833673507,0.3823222027,0.0
1654324927987537415,Object 28,2.93864651958,-1.37275547524,0.0,0.0186397577561,-0.71975060075,0.0
1654324928053478795,Object 14,1.21089053929,0.40921811911,0.0,-0.694667174738,0.278307046893,0.0
1654324928054639336,Object 28,2.94627449314,-1.42397814413,0.0,0.123145885776,-0.826937965251,0.0
1654324928116410668,Object 14,1.17552494347,0.408137530014,0.0,-0.562418945716,-0.0171846045835,0.0
1654324928116789199,Object 28,2.94753433267,-1.46192467829,0.0,0.0200352236837,-0.603463599034,0.0
1654324928187126528,Object 14,1.13148879677,0.42761560373,0.0,-0.648672235256,0.286920781282,0.0
1654324928187425805,Object 28,2.94921849767,-1.4981885167,0.0,0.0248085074999,-0.534182640472,0.0
1654324928253534287,Object 14,1.09370736152,0.42572686404,0.0,-0.562282047916,-0.0281091603301,0.0
1654324928254497528,Object 28,2.94787570039,-1.53781316876,0.0,-0.0199841747449,-0.589713714275,0.0
1654324928320915679,Object 14,1.05504317105,0.419339484274,0.0,-0.543439356697,-0.0897769617946,0.0
1654324928321968646,Object 28,2.94828240673,-1.58053306043,0.0,0.00571640645682,-0.600443722291,0.0
1654324928386700909,Object 14,1.02407720268,0.427718628049,0.0,-0.469008634076,0.126909991297,0.0
1654324928387631128,Object 28,2.94228497148,-1.61496538619,0.0,-0.090836781908,-0.521509867859,0.0
1654324928454815678,Object 14,0.989927285711,0.438707667192,0.0,-0.558676407302,0.179775456381,0.0
1654324928456423616,Object 28,2.93792083263,-1.65205339889,0.0,-0.0713952368137,-0.606742256702,0.0
1654324928520360648,Object 28,2.92995028496,-1.69048069914,0.0,-0.107588606149,-0.518702081771,0.0
1654324928587130640,Object 14,0.954713301162,0.427100491871,0.0,-0.262175061728,-0.08641771004,0.0
1654324928587216301,Object 28,2.93108161092,-1.72011676629,0.0,0.0187830525516,-0.492038392419,0.0
1654324928653859810,Object 14,0.933105492095,0.415149909606,0.0,-0.301597409642,-0.16680379968,0.0
1654324928654215768,Object 28,2.91521611214,-1.75668965777,0.0,-0.221447409143,-0.51047698994,0.0
1654324928720425358,Object 14,0.920006478727,0.400681006561,0.0,-0.203130986448,-0.22437434528,0.0
1654324928721215362,Object 28,2.90302491188,-1.79068699082,0.0,-0.189053210684,-0.527208546541,0.0
1654324928787379113,Object 14,0.9062703099,0.399493798904,0.0,-0.201075877167,-0.0173788502355,0.0
1654324928788175393,Object 28,2.89313192368,-1.83793985446,0.0,-0.144817765865,-0.691707500515,0.0
1654324928852463165,Object 14,0.902382972453,0.380697961691,0.0,-0.0597667748025,-0.288980976186,0.0
1654324928853130654,Object 28,2.88257028262,-1.88075131575,0.0,-0.162382409902,-0.65821478101,0.0
1654324928920775095,Object 28,2.88161598841,-1.9166488409,0.0,-0.0143697225573,-0.540543444961,0.0
1654324928985101399,Object 14,0.91962855867,0.357758339289,0.0,0.125178216969,-0.166508751527,0.0
1654324928985321185,Object 28,2.87610844771,-1.94453353286,0.0,-0.0771816049556,-0.390770653329,0.0
1654324929053726988,Object 14,0.932766304527,0.350409418884,0.0,0.216359360153,-0.121025915245,0.0
1654324929054231308,Object 28,2.86436293523,-1.99384684563,0.0,-0.193431323277,-0.81211776462,0.0
1654324929121783044,Object 28,2.85678428809,-2.03320134282,0.0,-0.11104254509,-0.576623169066,0.0
1654324929187890448,Object 28,2.8486137708,-2.07619596521,0.0,-0.113627235461,-0.597925432503,0.0
1654324929254858416,Object 28,2.84817840656,-2.11019331614,0.0,-0.00778121990506,-0.607631118062,0.0
1654324929255917591,Object 29,0.652330157551,0.431916699558,0.0,3.94383175516e-10,2.61126482593e-10,0.0
1654324929320261601,Object 28,2.85949763854,-2.14336649577,0.0,0.159968664185,-0.468818841923,0.0
1654324929321621194,Object 29,0.633651729318,0.409698233753,0.0,-0.263972256853,-0.314001718416,0.0
1654324929387438522,Object 28,2.86874035199,-2.18320177595,0.0,0.140510657886,-0.605588548708,0.0
1654324929388477153,Object 29,0.626515795681,0.368077245355,0.0,-0.10848272375,-0.632735450745,0.0
1654324929454862287,Object 14,0.967722597335,0.348245950582,0.0,0.0879974064538,-0.005446218239,0.0
1654324929455707484,Object 28,2.87846602996,-2.21630626122,0.0,0.150559535541,-0.512477993201,0.0
1654324929457039652,Object 29,0.62251425946,0.332225500792,0.0,-0.0619462660414,-0.555007273316,0.0
1654324929519234314,Object 28,2.89530462424,-2.24918180307,0.0,0.221429235798,-0.432316735433,0.0
1654324929520093265,Object 29,0.629511482162,0.32407529677,0.0,0.0920141937028,-0.107176015919,0.0
1654324929586179743,Object 29,0.625040699882,0.340084954898,0.0,-0.0681601808705,0.244078357063,0.0
1654324929653574732,Object 14,0.970818029855,0.376817456129,0.0,0.015194234863,0.14024604409,0.0
1654324929655289166,Object 29,0.6510792532,0.31423781693,0.0,0.419389381913,-0.416306354826,0.0
1654324929720063137,Object 28,2.88865927855,-2.32116002639,0.0,-0.0336806617083,-0.364807837546,0.0
1654324929720254668,Object 29,0.681003042899,0.298990524113,0.0,0.429782799142,-0.218990450467,0.0
1654324929786974776,Object 28,2.87943867842,-2.39061990182,0.0,-0.147735867796,-1.11291183114,0.0
1654324929788011244,Object 29,0.72109459623,0.284430046678,0.0,0.642361705338,-0.233293358304,0.0
1654324929852481032,Object 14,0.991006303841,0.398589492085,0.0,0.101587422988,0.109556915441,0.0
1654324929853257464,Object 28,2.8791305999,-2.43697991172,0.0,-0.00461956327444,-0.695157176156,0.0
1654324929853399834,Object 29,0.766621751289,0.266445304751,0.0,0.682668718393,-0.269676870991,0.0
1654324929920311900,Object 14,1.01061222803,0.4024562628,0.0,0.287221386384,0.0566471253659,0.0
1654324929921172570,Object 28,2.8751617233,-2.47654044429,0.0,-0.0581429484538,-0.579550900086,0.0
1654324929987440265,Object 14,1.03626244437,0.428253036234,0.0,0.373843925916,0.375979949962,0.0
1654324929987690072,Object 28,2.87667505503,-2.50066138228,0.0,0.0220563393333,-0.351555169458,0.0
1654324929988622842,Object 29,0.816429347495,0.256280442129,0.0,0.363897046784,-0.0742650473245,0.0
1654324930052903457,Object 28,2.86666041374,-2.53236932874,0.0,-0.14106293091,-0.446627665779,0.0
1654324930053362242,Object 29,0.86468232433,0.27086152489,0.0,0.679675501476,0.205384317983,0.0
1654324930120661499,Object 28,2.85326620698,-2.56334468246,0.0,-0.208878649747,-0.48305137996,0.0
1654324930122819117,Object 29,0.911346535484,0.299639074306,0.0,0.727714420893,0.448777278989,0.0
1654324930186672339,Object 28,2.83561121186,-2.58056084832,0.0,-0.288587572163,-0.281414493341,0.0
1654324930187596516,Object 29,0.962339837948,0.32673392723,0.0,0.83353369694,0.442890964785,0.0
1654324930251498516,Object 28,2.81123659571,-2.59388506134,0.0,-0.354439571488,-0.193751906809,0.0
1654324930252136981,Object 29,1.00300622344,0.331266905169,0.0,0.591343722554,0.065915571696,0.0
1654324930320987787,Object 28,2.78632422646,-2.62180409749,0.0,-0.397031856766,-0.444949520857,0.0
1654324930321744138,Object 29,1.04613037944,0.326184474329,0.0,0.687275608144,-0.0809993996459,0.0
1654324930383709182,Object 28,2.77551977595,-2.61095240434,0.0,-0.16440999873,0.165128884213,0.0
1654324930384090390,Object 29,1.08659646153,0.368698322674,0.0,0.615767409799,0.646928017729,0.0
1654324930451515582,Object 28,2.76746072729,-2.58517395973,0.0,-0.108606009588,0.3473975804,0.0
1654324930520093498,Object 28,2.75284497102,-2.56807227254,0.0,-0.243262679413,0.284638178911,0.0
1654324930521119201,Object 29,1.14232692063,0.389028046926,0.0,0.415011189744,0.151390517613,0.0
1654324930586556477,Object 28,2.7451431946,-2.54581947446,0.0,-0.113538353303,0.328047181715,0.0
1654324930587566412,Object 29,1.19463986993,0.397956642409,0.0,0.771189111723,0.131623923175,0.0
1654324930653115093,Object 28,2.73053441246,-2.52467473149,0.0,-0.225475609592,0.326353269329,0.0
1654324930653702802,Object 29,1.23961922765,0.415676470002,0.0,0.694222694874,0.273492265955,0.0
1654324930717514943,Object 28,2.71935074528,-2.50416185657,0.0,-0.143069729707,0.262415844685,0.0
1654324930717900839,Object 29,1.29349003673,0.420781794712,0.0,0.68915517315,0.0653110839616,0.0
1654324930784475808,Object 28,2.70667696794,-2.47623137434,0.0,-0.224810006936,0.495436501224,0.0
1654324930785006265,Object 29,1.34805857778,0.403996034786,0.0,0.967947736577,-0.297749179551,0.0
1654324930849448666,Object 28,2.70453717709,-2.44071158469,0.0,-0.0298690522149,0.495815958124,0.0
1654324930849673940,Object 29,1.40354530454,0.383483159368,0.0,0.774531742968,-0.286336464199,0.0
1654324930849838145,Object 36,1.19776640534,1.94334307313,0.0,7.24140854963e-10,1.17489863481e-09,0.0
1654324930921964124,Object 28,2.71124185324,-2.40798484385,0.0,0.111838923666,0.545906079238,0.0
1654324930923349699,Object 29,1.45287747025,0.371566919064,0.0,0.822896765111,-0.198771642321,0.0
1654324930987142794,Object 28,2.71064663529,-2.36117840111,0.0,-0.00830544364564,0.653119209286,0.0
1654324930987428040,Object 29,1.50556763053,0.373055018807,0.0,0.73521835463,0.0207643749716,0.0
1654324931053093497,Object 28,2.71067632238,-2.31287241677,0.0,0.000449033954921,0.730655297471,0.0
1654324931053915330,Object 29,1.55379801631,0.3673819268,0.0,0.729511826584,-0.0858087209114,0.0
1654324931120313953,Object 28,2.69593922297,-2.27993964056,0.0,-0.212994565892,0.475975779107,0.0
1654324931120659516,Object 29,1.61022104263,0.342107134983,0.0,0.815479197392,-0.365295310942,0.0
1654324931188361499,Object 28,2.6983803312,-2.23067211012,0.0,0.0355059698232,0.716597252806,0.0
1654324931189407575,Object 29,1.65148603559,0.354057715759,0.0,0.600200178939,0.173821445415,0.0
1654324931189619863,Object 36,1.25027005076,1.93977162838,0.0,0.156414140159,-0.0106397271123,0.0
1654324931251899109,Object 28,2.69205938578,-2.19179837803,0.0,-0.0951682341398,0.585283401536,0.0
1654324931252556798,Object 29,1.69321178834,0.377501002873,0.0,0.628223460646,0.352962427011,0.0
1654324931319894605,Object 28,2.68562410275,-2.15182574292,0.0,-0.113138841151,0.702759707144,0.0
1654324931320743963,Object 29,1.74017303626,0.379080676461,0.0,0.825626650459,0.027772273337,0.0
1654324931386269411,Object 28,2.68502304951,-2.11398223341,0.0,-0.00831730467861,0.523674075589,0.0
1654324931386516074,Object 29,1.7759919707,0.400349048326,0.0,0.495658241588,0.294309251929,0.0
1654324931454115778,Object 28,2.69640845855,-2.07144548595,0.0,0.170293475405,0.636229276695,0.0
1654324931454516056,Object 29,1.81146436135,0.418590854357,0.0,0.530566505362,0.272845756915,0.0
1654324931520341021,Object 28,2.69839042425,-2.04583872954,0.0,0.0278068420783,0.359261026223,0.0
1654324931520727085,Object 29,1.85717092752,0.438050614049,0.0,0.641259970876,0.27301908627,0.0
1654324931585795354,Object 28,2.69902507067,-2.01290594737,0.0,0.0108965647105,0.565439563139,0.0
1654324931587063543,Object 29,1.90001418591,0.457556162526,0.0,0.735597532421,0.334900609117,0.0
1654324931653312524,Object 28,2.71934786042,-1.96654592951,0.0,0.315639252498,0.720031135633,0.0
1654324931654092134,Object 29,1.94184770584,0.457487479349,0.0,0.649728758957,-0.00106673871989,0.0
1654324931722277345,Object 28,2.73801927368,-1.92158244054,0.0,0.243078533132,0.585368594817,0.0
1654324931723185934,Object 29,1.98646515012,0.467755363633,0.0,0.580863524058,0.133675057966,0.0
1654324931786790267,Object 28,2.75900423924,-1.87196005384,0.0,0.335408870581,0.793129187022,0.0
1654324931787634019,Object 29,2.02688082457,0.479568581035,0.0,0.645975599997,0.188814124793,0.0
1654324931852404101,Object 28,2.77138231198,-1.82665316264,0.0,0.192712060697,0.705375105789,0.0
1654324931853150118,Object 29,2.06930548549,0.475722419967,0.0,0.660502164036,-0.0598802124319,0.0
1654324931920007179,Object 29,2.11667651733,0.481056683014,0.0,0.687441643082,0.0774100628779,0.0
1654324931987121596,Object 29,2.15918896993,0.494792984674,0.0,0.635550862561,0.205354380525,0.0
1654324932055501661,Object 28,2.78713020086,-1.78180414836,0.0,0.077804687184,0.221582940588,0.0
1654324932056340858,Object 29,2.19032412966,0.493591058254,0.0,0.467474217209,-0.01804614517,0.0
1654324932121121177,Object 29,2.23358812531,0.497402881831,0.0,0.572636948585,0.0504528300919,0.0
1654324932185782406,Object 28,2.81394258738,-1.72731682857,0.0,0.200815516783,0.408091210978,0.0
1654324932186753557,Object 29,2.27072321177,0.496361212432,0.0,0.64064362904,-0.0179705752003,0.0
1654324932252494742,Object 29,2.31900009513,0.485715575516,0.0,0.750945413211,-0.165592549806,0.0
1654324932320241564,Object 28,2.84514593681,-1.65348422527,0.0,0.23628706457,0.559096680972,0.0
1654324932320492234,Object 29,2.35460261703,0.473215544224,0.0,0.52535260323,-0.184451090264,0.0
1654324932387606283,Object 28,2.85342733065,-1.59860771497,0.0,0.12486001723,0.827382702647,0.0
1654324932387898999,Object 29,2.38802235126,0.458666513612,0.0,0.503875153223,-0.21935826827,0.0
1654324932453256320,Object 28,2.86853643258,-1.52960570256,0.0,0.215285775273,0.983192237702,0.0
1654324932453582062,Object 29,2.41827869415,0.443831310918,0.0,0.43111498388,-0.211383054256,0.0
1654324932516148774,Object 28,2.88695940574,-1.46813576023,0.0,0.297352663883,0.992144478864,0.0
1654324932516383476,Object 29,2.44657593171,0.425104152411,0.0,0.456726441293,-0.302262312483,0.0
1654324932583153086,Object 28,2.89070701996,-1.40819970171,0.0,0.0520277814555,0.832086753608,0.0
1654324932583260344,Object 29,2.45957250396,0.407453005761,0.0,0.18043020985,-0.245049235403,0.0
1654324932653061087,Object 28,2.89863533179,-1.35596742133,0.0,0.136285860656,0.897860911885,0.0
1654324932653270610,Object 29,2.4804435424,0.399678259343,0.0,0.358768360656,-0.133646106557,0.0
1654324932719122537,Object 29,2.50700334628,0.394607274731,0.0,0.386912655136,-0.0738720861408,0.0
1654324932785807160,Object 29,2.5265343976,0.389971273889,0.0,0.318292141176,-0.0755516234347,0.0
1654324932853654430,Object 28,2.90591149728,-1.30754695634,0.0,0.0347674099356,0.231365567352,0.0
1654324932855882414,Object 29,2.54248495221,0.394401231905,0.0,0.201208653887,0.0558818116951,0.0
1654324932921111886,Object 28,2.93445720474,-1.24250557522,0.0,0.437306876123,0.996403512937,0.0
1654324932921894994,Object 29,2.54842616638,0.405092655122,0.0,0.0910166199152,0.163787599043,0.0
1654324932986329156,Object 28,2.95602830052,-1.17750998437,0.0,0.314268611371,0.94691870475,0.0
1654324932987258449,Object 29,2.57735305548,0.409144861996,0.0,0.421434931265,0.0590364736204,0.0
1654324933053736630,Object 28,2.96704168121,-1.13808680077,0.0,0.184786432144,0.661456245691,0.0
1654324933054675985,Object 29,2.60501384497,0.405610053043,0.0,0.464102598977,-0.0593082862968,0.0
1654324933118743335,Object 28,2.9616678377,-1.11610871653,0.0,-0.075251678786,0.307766263135,0.0
1654324933120326241,Object 29,2.63166993618,0.404339444811,0.0,0.37327391644,-0.0177927403914,0.0
1654324933186952711,Object 29,2.64934630354,0.406205291227,0.0,0.275509131606,0.0290816384989,0.0
1654324933253137503,Object 28,2.97451838454,-1.09255095224,0.0,0.0953175151954,0.174737120868,0.0
1654324933254765833,Object 29,2.66926290154,0.406251077528,0.0,0.281867639335,0.00064798599934,0.0
1654324933321738355,Object 28,2.98254755139,-1.0796388338,0.0,0.121224916368,0.194948056903,0.0
1654324933322592677,Object 29,2.67073912859,0.417356875713,0.0,0.022288177996,0.167676108875,0.0
1654324933386620690,Object 28,2.99403037429,-1.05099865297,0.0,0.171854081327,0.428634318399,0.0
1654324933387626160,Object 29,2.67902015289,0.409412716006,0.0,0.123935362935,-0.118893784285,0.0
1654324933453771598,Object 28,2.9994941016,-1.03144732018,0.0,0.0894230456561,0.31999029673,0.0
1654324933454057574,Object 29,2.67693920175,0.401651706596,0.0,-0.0340582495353,-0.12702191357,0.0
1654324933520494294,Object 28,3.00378002524,-0.990639060736,0.0,0.061672436014,0.587211761349,0.0
1654324933521273442,Object 29,2.66900757591,0.391349479854,0.0,-0.114132385079,-0.148244222934,0.0
1654324933587043936,Object 28,3.01741684477,-0.969095967213,0.0,0.199820315211,0.315670947427,0.0
1654324933587322480,Object 29,2.656321522,0.374270677865,0.0,-0.185888746818,-0.250255684002,0.0
1654324933653938486,Object 28,3.00801246961,-0.962914629777,0.0,-0.153968813146,0.101201108305,0.0
1654324933654750850,Object 29,2.62813643058,0.375816011354,0.0,-0.461447464808,0.0253002628451,0.0
1654324933720275909,Object 28,3.00418255329,-0.963280931115,0.0,-0.055613640901,-0.00531900683291,0.0
1654324933720604565,Object 29,2.59547375043,0.375733592734,0.0,-0.474289883572,-0.00119678843817,0.0
1654324933787829387,Object 29,2.55883560975,0.388908992459,0.0,-0.53783949321,0.193411842961,0.0
1654324933854967107,Object 28,3.0074298501,-0.954627062877,0.0,0.0230027748269,0.0613011357143,0.0
1654324933856358689,Object 29,2.52007851799,0.405724515269,0.0,-0.530564168426,0.230195648614,0.0
1654324933921698722,Object 28,3.01614956856,-0.929420950015,0.0,0.137047383509,0.396163228599,0.0
1654324933921952611,Object 29,2.48880544106,0.403961692005,0.0,-0.491517402682,-0.0277062060093,0.0
1654324933985346803,Object 29,2.46181263725,0.383918139587,0.0,-0.454451043042,-0.337453395591,0.0
1654324934054591843,Object 28,3.01892090241,-0.892287156979,0.0,0.0207852467244,0.278506701428,0.0
1654324934054626812,Object 29,2.4220649461,0.387661280731,0.0,-0.537601215064,0.0506272734089,0.0
1654324934121141230,Object 28,3.01372632583,-0.857396954298,0.0,-0.0875388556972,0.587968695801,0.0
1654324934121756491,Object 29,2.38286149502,0.396200681105,0.0,-0.660655434173,0.143905730403,0.0
1654324934186973762,Object 28,3.00927420457,-0.829100177685,0.0,-0.0612034833795,0.388996884143,0.0
1654324934187425195,Object 29,2.34459401766,0.392537667726,0.0,-0.526064493433,-0.0503555868015,0.0
1654324934254050110,Object 29,2.308610636,0.398581641043,0.0,-0.579365306339,0.0973134899994,0.0
1654324934318885306,Object 28,3.00536706646,-0.814150508245,0.0,-0.0287804374742,0.110121018139,0.0
1654324934320467017,Object 29,2.27165337006,0.411070230107,0.0,-0.501806413427,0.169570284174,0.0
1654324934386427076,Object 28,2.9951724867,-0.820881297191,0.0,-0.170051727064,-0.112273611244,0.0
1654324934386691483,Object 29,2.22853722175,0.408231395483,0.0,-0.719203307775,-0.0473534703663,0.0
1654324934453139750,Object 28,2.98068574071,-0.800322637955,0.0,-0.223226536075,0.316788759163,0.0
1654324934454471564,Object 29,2.19286807378,0.404659957687,0.0,-0.549626558608,-0.0550323508377,0.0
1654324934521573125,Object 28,2.97097857197,-0.802795171738,0.0,-0.136750803301,-0.0348320905966,0.0
1654324934521911039,Object 29,2.15706217488,0.385990036403,0.0,-0.504419524401,-0.263014561921,0.0
1654324934586648684,Object 29,2.11622656663,0.400729086672,0.0,-0.637874489781,0.230232010115,0.0
1654324934653260388,Object 29,2.07494587978,0.426507543946,0.0,-0.571325926561,0.356774610826,0.0
1654324934721485282,Object 28,2.95367814501,-0.790020412207,0.0,-0.0889543308129,0.0656845168045,0.0
1654324934722363720,Object 29,2.03829601606,0.43181662413,0.0,-0.629569271977,0.0911990770699,0.0
1654324934787522515,Object 28,2.93936500748,-0.786792379618,0.0,-0.203465963973,0.0458875463897,0.0
1654324934788430562,Object 29,2.00131840408,0.435433848475,0.0,-0.525648932685,0.0514200353889,0.0
1654324934851614728,Object 28,2.92281387051,-0.798880323768,0.0,-0.248813645585,-0.181718359103,0.0
1654324934851992339,Object 29,1.95823075374,0.457709547405,0.0,-0.647737697995,0.334871125083,0.0
1654324934920491183,Object 29,1.91003241738,0.46141834793,0.0,-0.649256910611,0.0499594913912,0.0
1654324934987290864,Object 28,2.89833934506,-0.82433826824,0.0,-0.184430746123,-0.191841419076,0.0
1654324934988175425,Object 29,1.86088380019,0.445461344098,0.0,-0.84062277418,-0.272923666955,0.0
1654324935057084957,Object 28,2.87771959106,-0.855657032132,0.0,-0.288963155761,-0.438898002869,0.0
1654324935058442761,Object 29,1.82160302798,0.465653705969,0.0,-0.550476785523,0.282973725565,0.0
1654324935116229177,Object 29,1.76978321175,0.474147319421,0.0,-0.714206586138,0.117063222305,0.0
1654324935187488513,Object 29,1.7209791402,0.495266881585,0.0,-0.794716538872,0.343907071969,0.0
1654324935253899052,Object 28,2.85487631361,-0.916852246722,0.0,-0.112210285551,-0.300601895553,0.0
1654324935254826909,Object 29,1.66834316174,0.497698206156,0.0,-0.756164483734,0.0349282248204,0.0
1654324935319892876,Object 28,2.82323182424,-0.964219591022,0.0,-0.515655408958,-0.771863530877,0.0
1654324935320861329,Object 29,1.62475526651,0.467203621268,0.0,-0.710276398569,-0.496917408234,0.0
1654324935384416323,Object 28,2.80447174509,-1.01309792896,0.0,-0.303008210073,-0.789470959883,0.0
1654324935384701768,Object 29,1.57299522161,0.467057101776,0.0,-0.836015585789,-0.00236654700061,0.0
1654324935454173893,Object 28,2.79412153761,-1.07875744005,0.0,-0.146472357276,-0.929189427194,0.0
1654324935454439969,Object 29,1.52093594968,0.450230134626,0.0,-0.736723808383,-0.238129095208,0.0
1654324935520584442,Object 28,2.78041005731,-1.13008541167,0.0,-0.198801581376,-0.744199875094,0.0
1654324935520890283,Object 29,1.47829421461,0.412111902585,0.0,-0.618258873633,-0.552672989605,0.0
1654324935587932119,Object 28,2.77742533088,-1.19316936731,0.0,-0.0461335637767,-0.975060113649,0.0
1654324935588107359,Object 29,1.43904772103,0.395903068533,0.0,-0.606615265274,-0.250532602327,0.0
1654324935655075492,Object 28,2.77346172929,-1.25117089748,0.0,-0.056933585389,-0.833140010753,0.0
1654324935655287866,Object 29,1.39362122118,0.400504729648,0.0,-0.652510967503,0.0660987387799,0.0
1654324935721709285,Object 28,2.76504490256,-1.31456392229,0.0,-0.120816595426,-0.909954509054,0.0
1654324935722695765,Object 29,1.34524350862,0.392995550732,0.0,-0.694422104419,-0.107788060844,0.0
1654324935788017124,Object 28,2.77219057163,-1.37050499936,0.0,0.114937522371,-0.899807805389,0.0
1654324935788857488,Object 29,1.30467926065,0.372707035194,0.0,-0.652472723961,-0.326339169639,0.0
1654324935852015864,Object 28,2.77969089826,-1.41937188228,0.0,0.11080656978,-0.72193811508,0.0
1654324935852658377,Object 29,1.26954975426,0.340815922916,0.0,-0.518988077627,-0.471145448816,0.0
1654324935920279676,Object 28,2.78403166016,-1.45075933059,0.0,0.0766159371804,-0.553999234113,0.0
1654324935920598533,Object 29,1.23898287714,0.310344229688,0.0,-0.539515871112,-0.53783584263,0.0
1654324935986959859,Object 28,2.79958249609,-1.49988949219,0.0,0.217098033995,-0.685883482004,0.0
1654324935987304671,Object 29,1.19131996532,0.31594177117,0.0,-0.665399885723,0.0781446898715,0.0
1654324936053025251,Object 28,2.81977256219,-1.53548939943,0.0,0.264427823801,-0.466249389802,0.0
1654324936054361840,Object 29,1.15376109878,0.297042911425,0.0,-0.491905736958,-0.247516988302,0.0
1654324936118829584,Object 28,2.82731676181,-1.56841073751,0.0,0.127804233125,-0.557711430729,0.0
1654324936121121260,Object 29,1.11054925422,0.291067621782,0.0,-0.732040101055,-0.101225755997,0.0
1654324936185627107,Object 28,2.8402437218,-1.60426249027,0.0,0.18316009229,-0.507977927391,0.0
1654324936185886712,Object 29,1.06709719102,0.288457724378,0.0,-0.615665547947,-0.0369792317658,0.0
1654324936253484875,Object 28,2.86104313215,-1.62812931061,0.0,0.374615890002,-0.429862673698,0.0
1654324936253763548,Object 29,1.03020685563,0.283375292942,0.0,-0.6644277695,-0.0915391130902,0.0
1654324936319323864,Object 28,2.87095315536,-1.65934505085,0.0,0.136125502705,-0.428783893023,0.0
1654324936319512946,Object 29,0.997929127514,0.260870653875,0.0,-0.443371511085,-0.309126955658,0.0
1654324936386247784,Object 28,2.88810503085,-1.68686343928,0.0,0.275315364273,-0.441714676433,0.0
1654324936387172539,Object 29,0.963701023161,0.235824801264,0.0,-0.549416477549,-0.402026474417,0.0
1654324936452484998,Object 29,0.929727745354,0.222253336844,0.0,-0.470094996008,-0.18779105002,0.0
1654324936519038540,Object 29,0.894085386197,0.207406686116,0.0,-0.564346749453,-0.235075883776,0.0
1654324936585901822,Object 29,0.860442758898,0.191518365523,0.0,-0.505098710115,-0.238541721665,0.0
